{
    "code": "1",
    "msg": "成功",
    "data": [
        {
            "adminId": 5,
            "phone": "17310400212",
            "name": "测试线",
            "address": "北京市北京市海淀区$太平优盛大厦",
            "city": "北京市",
            "longitude": "116.339299",
            "latitude": "39.992408"
        },
        {
            "adminId": 7,
            "phone": "17601000633",
            "name": "是粉色粉色",
            "address": "北京市北京市东城区$嫩白",
            "city": "北京市",
            "longitude": "116.416357",
            "latitude": "39.928353"
        },
        {
            "adminId": 9,
            "phone": "15810109180",
            "name": "测试彩店",
            "address": "北京市北京市海淀区$优盛大厦d座",
            "city": "北京市",
            "longitude": "116.338758",
            "latitude": "39.991581"
        },
        {
            "adminId": 11,
            "phone": "15811599422",
            "name": "叮当竞彩专营店",
            "address": "北京市北京市朝阳区$甘露园南里一区25号楼对面体育彩票",
            "city": "北京市",
            "longitude": "116.510621",
            "latitude": "39.914371"
        },
        {
            "adminId": 12,
            "phone": "13716285098",
            "name": "崇文球迷店",
            "address": "北京市北京市昌平区$沙河高教园区北街家园五区底商",
            "city": "北京市",
            "longitude": "116.269271",
            "latitude": "40.166442"
        },
        {
            "adminId": 13,
            "phone": "13621339038",
            "name": "恭喜彩站",
            "address": "北京市北京市通州区$马驹桥镇史村",
            "city": "北京市",
            "longitude": "116.591748",
            "latitude": "39.739706"
        },
        {
            "adminId": 15,
            "phone": "13901264210",
            "name": "睿彩福地",
            "address": "北京市北京市海淀区$优盛大厦1201-02",
            "city": "北京市",
            "longitude": "116.339299",
            "latitude": "39.992408"
        },
        {
            "adminId": 17,
            "phone": "18910396362",
            "name": "彩票红",
            "address": "北京市北京市朝阳区$化工桥豆各庄大鲁店北路b区101号",
            "city": "北京市",
            "longitude": "116.554725",
            "latitude": "39.864438"
        },
        {
            "adminId": 18,
            "phone": "13021209105",
            "name": "刘旭东测试店",
            "address": "北京市北京市丰台区$丰台火车站",
            "city": "北京市",
            "longitude": "116.288502",
            "latitude": "39.848245"
        },
        {
            "adminId": 20,
            "phone": "15201059195",
            "name": "竞技彩",
            "address": "北京市北京市海淀区$太平洋",
            "city": "北京市",
            "longitude": "116.316675",
            "latitude": "39.983392"
        },
        {
            "adminId": 21,
            "phone": "13911870312",
            "name": "建国彩票店（测试）",
            "address": "北京市北京市丰台区$翠林小区",
            "city": "北京市",
            "longitude": "116.369450",
            "latitude": "39.859608"
        },
        {
            "adminId": 23,
            "phone": "18141906393",
            "name": "小站宝",
            "address": "北京市北京市西城区$ffffff",
            "city": "北京市",
            "longitude": "116.365868",
            "latitude": "39.912289"
        },
        {
            "adminId": 35,
            "phone": "18222333050",
            "name": "小超店测试",
            "address": "北京市北京市海淀区$优盛大厦D座1202",
            "city": "北京市",
            "longitude": "116.338758",
            "latitude": "39.991581"
        },
        {
            "adminId": 38,
            "phone": "13811092958",
            "name": "小康彩票",
            "address": "北京市北京市大兴区$亦庄小康家国2号楼三羊康盛宾馆一层",
            "city": "北京市",
            "longitude": "116.521664",
            "latitude": "39.821906"
        },
        {
            "adminId": 56,
            "phone": "13366386326",
            "name": "官庄彩票",
            "address": "北京市北京市平谷区$官庄路口南100米路西",
            "city": "北京市",
            "longitude": "117.022799",
            "latitude": "40.142697"
        },
        {
            "adminId": 58,
            "phone": "15901533153",
            "name": "新的彩票店",
            "address": "北京市北京市海淀区$Center",
            "city": "北京市",
            "longitude": "116.298056",
            "latitude": "39.959912"
        },
        {
            "adminId": 79,
            "phone": "18610247466",
            "name": "大圣彩站",
            "address": "北京市北京市海淀区$大钟寺",
            "city": "北京市",
            "longitude": "116.339882",
            "latitude": "39.965569"
        },
        {
            "adminId": 82,
            "phone": "18211175750",
            "name": "明成竞彩专营",
            "address": "北京市北京市朝阳区$平房乡石各庄村333号",
            "city": "北京市",
            "longitude": "116.558905",
            "latitude": "39.939159"
        },
        {
            "adminId": 92,
            "phone": "15638881080",
            "name": "阳哥彩票店",
            "address": "北京市北京市海淀区$成府路",
            "city": "北京市",
            "longitude": "116.333697",
            "latitude": "39.992740"
        },
        {
            "adminId": 101,
            "phone": "18515186965",
            "name": "峰赢竞彩店",
            "address": "北京市北京市朝阳区$来广营乡费家村儒天商业街底商",
            "city": "北京市",
            "longitude": "116.502261",
            "latitude": "40.019765"
        },
        {
            "adminId": 125,
            "phone": "13552838558",
            "name": "老孙彩票店",
            "address": "北京市北京市海淀区$玉泉路68号西门",
            "city": "北京市",
            "longitude": "116.253350",
            "latitude": "39.898239"
        },
        {
            "adminId": 162,
            "phone": "18210066192",
            "name": "旺财测试店",
            "address": "北京市北京市丰台区$花村",
            "city": "北京市",
            "longitude": "116.287149",
            "latitude": "39.858427"
        },
        {
            "adminId": 236,
            "phone": "17710372763",
            "name": "小王彩站测试",
            "address": "北京市北京市海淀区$优盛大厦D座12楼1202",
            "city": "北京市",
            "longitude": "116.338758",
            "latitude": "39.991581"
        },
        {
            "adminId": 278,
            "phone": "13366328430",
            "name": "彩民之家测试",
            "address": "北京市北京市海淀区$优盛大厦",
            "city": "北京市",
            "longitude": "116.339299",
            "latitude": "39.992408"
        },
        {
            "adminId": 283,
            "phone": "15926297974",
            "name": "12345",
            "address": "北京市北京市昌平区$221",
            "city": "北京市",
            "longitude": "116.231204",
            "latitude": "40.220660"
        },
        {
            "adminId": 285,
            "phone": "18801214807",
            "name": "精彩家投注站",
            "address": "北京市北京市通州区$北京市通州区经海路京东总部大厦",
            "city": "北京市",
            "longitude": "116.562745",
            "latitude": "39.786464"
        },
        {
            "adminId": 323,
            "phone": "15211111111",
            "name": "测试数据2",
            "address": "北京市北京市东城区$优盛大厦",
            "city": "北京市",
            "longitude": "116.416357",
            "latitude": "39.928353"
        },
        {
            "adminId": 327,
            "phone": "15212222222",
            "name": "啊啊啊呀",
            "address": "北京市北京市东城区$二手家电",
            "city": "北京市",
            "longitude": "116.416357",
            "latitude": "39.928353"
        },
        {
            "adminId": 331,
            "phone": "13800000000",
            "name": "测试结果",
            "address": "北京市北京市西城区$测试",
            "city": "北京市",
            "longitude": "116.365868",
            "latitude": "39.912289"
        },
        {
            "adminId": 333,
            "phone": "18900000033",
            "name": "我热爱测试",
            "address": "北京市北京市丰台区$测试啊",
            "city": "北京市",
            "longitude": "116.287149",
            "latitude": "39.858427"
        },
        {
            "adminId": 334,
            "phone": "15214444444",
            "name": "挤的发育一天",
            "address": "北京市北京市东城区$测试",
            "city": "北京市",
            "longitude": "116.416357",
            "latitude": "39.928353"
        },
        {
            "adminId": 338,
            "phone": "15311111111",
            "name": "中央音乐学院",
            "address": "北京市北京市西城区$6号",
            "city": "北京市",
            "longitude": "116.365868",
            "latitude": "39.912289"
        },
        {
            "adminId": 347,
            "phone": "18606507912",
            "name": "测试达",
            "address": "北京市北京市东城区$问问我问问",
            "city": "北京市",
            "longitude": "116.416357",
            "latitude": "39.928353"
        },
        {
            "adminId": 352,
            "phone": "13800000008",
            "name": "怎么回事",
            "address": "北京市北京市东城区$feed",
            "city": "北京市",
            "longitude": "116.416357",
            "latitude": "39.928353"
        },
        {
            "adminId": 367,
            "phone": "13391685224",
            "name": "高频彩",
            "address": "北京市北京市海淀区$太平洋网络",
            "city": "北京市",
            "longitude": "116.314840",
            "latitude": "39.986780"
        },
        {
            "adminId": 383,
            "phone": "13031157360",
            "name": "自由竞彩",
            "address": "北京市北京市朝阳区$紫金数码园",
            "city": "北京市",
            "longitude": "116.443108",
            "latitude": "39.921470"
        },
        {
            "adminId": 408,
            "phone": "18700000000",
            "name": "测试数据1",
            "address": "北京市北京市东城区$测试部",
            "city": "北京市",
            "longitude": "116.416357",
            "latitude": "39.928353"
        },
        {
            "adminId": 411,
            "phone": "13121840455",
            "name": "北京竞彩北单",
            "address": "北京市北京市丰台区$大红门路12号",
            "city": "北京市",
            "longitude": "116.399689",
            "latitude": "39.801301"
        },
        {
            "adminId": 448,
            "phone": "13811604545",
            "name": "14场体彩店",
            "address": "北京市北京市平谷区$鲁各庄中路25号",
            "city": "北京市",
            "longitude": "117.070363",
            "latitude": "40.145668"
        },
        {
            "adminId": 452,
            "phone": "13901091831",
            "name": "彩民公社",
            "address": "北京市北京市昌平区$西环路满井胡同3号",
            "city": "北京市",
            "longitude": "116.229164",
            "latitude": "40.219090"
        },
        {
            "adminId": 461,
            "phone": "13716495851",
            "name": "幸运星体彩",
            "address": "北京市北京市怀柔区$庙城镇高两河334号",
            "city": "北京市",
            "longitude": "116.655000",
            "latitude": "40.288156"
        },
        {
            "adminId": 467,
            "phone": "13716876543",
            "name": "体彩。福彩。",
            "address": "北京市北京市顺义区$丰伯",
            "city": "北京市",
            "longitude": "116.654651",
            "latitude": "40.130347"
        },
        {
            "adminId": 473,
            "phone": "18701218861",
            "name": "花园龅牙哥",
            "address": "北京市北京市密云区$宾阳医院西侧20米",
            "city": "北京市",
            "longitude": "116.859289",
            "latitude": "40.383253"
        },
        {
            "adminId": 475,
            "phone": "13716432868",
            "name": "A亿元彩站",
            "address": "北京市北京市昌平区$回龙观镇龙禧三街龙禧医院商房",
            "city": "北京市",
            "longitude": "116.316804",
            "latitude": "40.078965"
        },
        {
            "adminId": 478,
            "phone": "13520511618",
            "name": "必中彩票店",
            "address": "北京市北京市昌平区$南大街国寿酒店底商",
            "city": "北京市",
            "longitude": "116.233245",
            "latitude": "40.219816"
        },
        {
            "adminId": 479,
            "phone": "18810056870",
            "name": "旺龙花园体彩",
            "address": "北京市北京市昌平区$黄平路旺龙花园底商",
            "city": "北京市",
            "longitude": "116.366484",
            "latitude": "40.080718"
        },
        {
            "adminId": 480,
            "phone": "18811502425",
            "name": "密云果园体彩",
            "address": "北京市北京市东城区$密云果园西里",
            "city": "北京市",
            "longitude": "116.416357",
            "latitude": "39.928353"
        },
        {
            "adminId": 491,
            "phone": "15801619659",
            "name": "徐飞彩票",
            "address": "北京市北京市昌平区$北京人家北门商业街62号（彩票专卖店）",
            "city": "北京市",
            "longitude": "116.301120",
            "latitude": "40.080600"
        },
        {
            "adminId": 493,
            "phone": "13910903727",
            "name": "旺旺街",
            "address": "北京市北京市平谷区$上纸寨北街97号",
            "city": "北京市",
            "longitude": "117.139600",
            "latitude": "40.156853"
        },
        {
            "adminId": 527,
            "phone": "15601074368",
            "name": "彩行天下",
            "address": "北京市北京市顺义区$幸福东区8-6-101",
            "city": "北京市",
            "longitude": "116.659051",
            "latitude": "40.133495"
        },
        {
            "adminId": 544,
            "phone": "18810660876",
            "name": "顺义仓上竞彩",
            "address": "北京市北京市顺义区$仓上小区已33号5门102",
            "city": "北京市",
            "longitude": "116.651800",
            "latitude": "40.133150"
        },
        {
            "adminId": 549,
            "phone": "13910699799",
            "name": "北京竞彩联盟",
            "address": "北京市北京市石景山区$模式口北里41号",
            "city": "北京市",
            "longitude": "116.150989",
            "latitude": "39.935097"
        },
        {
            "adminId": 551,
            "phone": "15910957477",
            "name": "天桥彩票站",
            "address": "北京市北京市西城区$天桥福长街32号",
            "city": "北京市",
            "longitude": "116.395449",
            "latitude": "39.884700"
        },
        {
            "adminId": 700,
            "phone": "18612455967",
            "name": "竞彩足球篮球",
            "address": "北京市北京市丰台区$马家楼路西区1号院24号楼",
            "city": "北京市",
            "longitude": "116.337750",
            "latitude": "39.835750"
        },
        {
            "adminId": 705,
            "phone": "18801266391",
            "name": "竞彩旗舰店",
            "address": "北京市北京市石景山区$杨庄大街星宇大厦底商东1号",
            "city": "北京市",
            "longitude": "116.198683",
            "latitude": "39.918165"
        },
        {
            "adminId": 726,
            "phone": "13311196821",
            "name": "体彩竞彩福彩",
            "address": "北京市北京市昌平区$北七家镇名佳花园一区1号楼体育彩票",
            "city": "北京市",
            "longitude": "116.422977",
            "latitude": "40.103782"
        },
        {
            "adminId": 746,
            "phone": "13161549839",
            "name": "北农体彩",
            "address": "北京市北京市昌平区$北农市场2号厅A02+",
            "city": "北京市",
            "longitude": "116.321250",
            "latitude": "40.095250"
        },
        {
            "adminId": 779,
            "phone": "18611943848",
            "name": "零上50度",
            "address": "密云区行宫2号楼体彩开心彩吧",
            "city": "北京市",
            "longitude": "116.863022",
            "latitude": "40.378387"
        },
        {
            "adminId": 834,
            "phone": "18611346767",
            "name": "金汉诚信彩票",
            "address": "北京市北京市顺义区$金汉绿港一区9号商业楼104",
            "city": "北京市",
            "longitude": "116.663251",
            "latitude": "40.134659"
        },
        {
            "adminId": 901,
            "phone": "15084228155",
            "name": "小亮亮测试",
            "address": "北京市北京市大兴区$宏达北路",
            "city": "北京市",
            "longitude": "116.505990",
            "latitude": "39.802879"
        },
        {
            "adminId": 904,
            "phone": "13146661234",
            "name": "红房子彩票",
            "address": "北京市北京市丰台区$五爱屯东街64号院",
            "city": "北京市",
            "longitude": "116.379887",
            "latitude": "39.798518"
        },
        {
            "adminId": 919,
            "phone": "13520857292",
            "name": "测试小代",
            "address": "北京市北京市西城区$莫失，o yi xi x po ho g z y",
            "city": "北京市",
            "longitude": "116.365868",
            "latitude": "39.912289"
        },
        {
            "adminId": 938,
            "phone": "13911521373",
            "name": "天竺体彩专卖",
            "address": "北京市北京市顺义区$天竺镇小王辛庄南路8号",
            "city": "北京市",
            "longitude": "116.590441",
            "latitude": "40.072515"
        },
        {
            "adminId": 941,
            "phone": "13910507061",
            "name": "收米喽彩吧",
            "address": "北京市北京市通州区$台湖镇董村",
            "city": "北京市",
            "longitude": "116.552054",
            "latitude": "39.832041"
        },
        {
            "adminId": 963,
            "phone": "15010474283",
            "name": "姚霞福体彩站",
            "address": "北京市北京市朝阳区$北苑家园易事达物美超市",
            "city": "北京市",
            "longitude": "116.421342",
            "latitude": "40.042546"
        },
        {
            "adminId": 987,
            "phone": "15810161732",
            "name": "翻身竞彩店",
            "address": "北京市北京市昌平区$天通苑西三区",
            "city": "北京市",
            "longitude": "116.409424",
            "latitude": "40.077062"
        },
        {
            "adminId": 994,
            "phone": "18610377980",
            "name": "红梅彩票店",
            "address": "北京市北京市通州区$宋庄镇白家坟15号",
            "city": "北京市",
            "longitude": "116.735313",
            "latitude": "39.946250"
        },
        {
            "adminId": 1013,
            "phone": "13521216902",
            "name": "西马庄体彩店",
            "address": "北京市北京市通州区$西马庄体彩店",
            "city": "北京市",
            "longitude": "116.631473",
            "latitude": "39.915039"
        },
        {
            "adminId": 1022,
            "phone": "18611055766",
            "name": "小飞彩吧",
            "address": "北京市北京市通州区$北京市通州区云景东路金桥时代小区363号楼底商9",
            "city": "北京市",
            "longitude": "116.671260",
            "latitude": "39.874588"
        },
        {
            "adminId": 1089,
            "phone": "13717865338",
            "name": "李峰彩票店",
            "address": "北京市北京市朝阳区$费家村东门94号",
            "city": "北京市",
            "longitude": "116.505472",
            "latitude": "40.015891"
        },
        {
            "adminId": 1182,
            "phone": "15215910933",
            "name": "菜多多",
            "address": "北京市北京市西城区$202",
            "city": "北京市",
            "longitude": "116.365868",
            "latitude": "39.912289"
        },
        {
            "adminId": 1270,
            "phone": "13663472998",
            "name": "石各庄专卖店",
            "address": "北京市北京市朝阳区$北京市朝阳区平房乡石各庄村75号",
            "city": "北京市",
            "longitude": "116.561589",
            "latitude": "39.939597"
        },
        {
            "adminId": 1322,
            "phone": "13911052218",
            "name": "r46033",
            "address": "北京市北京市怀柔区$北京市怀柔区杨宋镇",
            "city": "北京市",
            "longitude": "116.685201",
            "latitude": "40.295659"
        },
        {
            "adminId": 1396,
            "phone": "15810351906",
            "name": "买必得",
            "address": "北京市北京市昌平区$育知东路30号院",
            "city": "北京市",
            "longitude": "116.337045",
            "latitude": "40.073001"
        },
        {
            "adminId": 1483,
            "phone": "13071165348",
            "name": "北京轩轩彩吧",
            "address": "北京市北京市大兴区$郁花园一里商业街21号楼底商",
            "city": "北京市",
            "longitude": "116.335333",
            "latitude": "39.773948"
        },
        {
            "adminId": 1663,
            "phone": "18513811722",
            "name": "大鹏彩吧",
            "address": "北京市北京市海淀区$知春路201号",
            "city": "北京市",
            "longitude": "116.336208",
            "latitude": "39.976456"
        },
        {
            "adminId": 1797,
            "phone": "18511311419",
            "name": "小李彩票站",
            "address": "北京市北京市海淀区$圆明园西路梅园小区甲一号楼六单元",
            "city": "北京市",
            "longitude": "116.272779",
            "latitude": "40.031576"
        },
        {
            "adminId": 1860,
            "phone": "15701570867",
            "name": "长点心的海艳",
            "address": "北京市北京市海淀区$五道口",
            "city": "北京市",
            "longitude": "116.337742",
            "latitude": "39.992894"
        },
        {
            "adminId": 2104,
            "phone": "13466694016",
            "name": "小堡广场体彩",
            "address": "北京市北京市通州区$宋庄镇小堡村商业广场",
            "city": "北京市",
            "longitude": "116.721806",
            "latitude": "39.950132"
        },
        {
            "adminId": 2472,
            "phone": "13511078991",
            "name": "天竺二十号店",
            "address": "北京市北京市顺义区$天竺二十里堡村老京顺路16号",
            "city": "北京市",
            "longitude": "116.571984",
            "latitude": "40.079957"
        },
        {
            "adminId": 3006,
            "phone": "18801342527",
            "name": "怀柔竞彩",
            "address": "北京市北京市怀柔区$兴怀大街5-2",
            "city": "北京市",
            "longitude": "116.642349",
            "latitude": "40.321407"
        },
        {
            "adminId": 3044,
            "phone": "13911103964",
            "name": "朝凤俺体彩",
            "address": "北京市北京市昌平区$北京市昌平区道朝凤社区",
            "city": "北京市",
            "longitude": "116.261575",
            "latitude": "40.239389"
        },
        {
            "adminId": 3182,
            "phone": "13501344823",
            "name": "梨园体彩",
            "address": "北京市北京市通州区$梨园镇万盛北街小稿村底商",
            "city": "北京市",
            "longitude": "116.650022",
            "latitude": "39.869829"
        },
        {
            "adminId": 3197,
            "phone": "13810398975",
            "name": "i智慧",
            "address": "北京市北京市昌平区$回龙观东亚上北西北角底商17-16",
            "city": "北京市",
            "longitude": "116.338550",
            "latitude": "40.082869"
        },
        {
            "adminId": 3358,
            "phone": "13552300982",
            "name": "戴维",
            "address": "北京市北京市房山区$城关街道朱各庄回迁楼安置房13号",
            "city": "北京市",
            "longitude": "116.170524",
            "latitude": "39.744387"
        },
        {
            "adminId": 3431,
            "phone": "13381198059",
            "name": "小张彩店",
            "address": "北京市北京市海淀区$二街坊菜场南口3-4号",
            "city": "北京市",
            "longitude": "116.260230",
            "latitude": "39.913750"
        },
        {
            "adminId": 3526,
            "phone": "15600000000",
            "name": "测试注册啦",
            "address": "北京市北京市丰台区$嘎嘎！",
            "city": "北京市",
            "longitude": "116.287149",
            "latitude": "39.858427"
        },
        {
            "adminId": 3544,
            "phone": "15510706298",
            "name": "测试店铺名",
            "address": "北京市北京市海淀区$五道口1号",
            "city": "北京市",
            "longitude": "116.337641",
            "latitude": "39.992809"
        },
        {
            "adminId": 3602,
            "phone": "17190081789",
            "name": "红房子彩吧",
            "address": "北京市北京市丰台区$南苑街道西宏苑小区4号楼前底商3号",
            "city": "北京市",
            "longitude": "116.380336",
            "latitude": "39.799793"
        },
        {
            "adminId": 3603,
            "phone": "13521262956",
            "name": "三营门彩票",
            "address": "北京市北京市丰台区$丰台区南苑路龙和路9号",
            "city": "北京市",
            "longitude": "116.402331",
            "latitude": "39.807378"
        },
        {
            "adminId": 3606,
            "phone": "17190185123",
            "name": "永华彩票站",
            "address": "北京市北京市朝阳区$十八里店南桥，前祈家庄彩票站",
            "city": "北京市",
            "longitude": "116.471268",
            "latitude": "39.837478"
        },
        {
            "adminId": 3608,
            "phone": "17190081678",
            "name": "西罗园彩票",
            "address": "北京市北京市东城区$西革新里124号",
            "city": "北京市",
            "longitude": "116.392804",
            "latitude": "39.864264"
        },
        {
            "adminId": 3609,
            "phone": "17191089678",
            "name": "三元桥彩票店",
            "address": "北京市北京市朝阳区$朝阳区三元西桥香河园街道曙光西里甲10号苏宁易购旁的彩票店",
            "city": "北京市",
            "longitude": "116.448975",
            "latitude": "39.962009"
        },
        {
            "adminId": 3613,
            "phone": "17060380330",
            "name": "新宫彩票店",
            "address": "北京市北京市丰台区$槐房西路新宫地铁口",
            "city": "北京市",
            "longitude": "116.365243",
            "latitude": "39.814633"
        },
        {
            "adminId": 3648,
            "phone": "13718108070",
            "name": "康营彩票店",
            "address": "北京市北京市朝阳区$孙河乡康营32区2号楼一层",
            "city": "北京市",
            "longitude": "116.539080",
            "latitude": "40.031663"
        },
        {
            "adminId": 3662,
            "phone": "13911658991",
            "name": "88彩店",
            "address": "北京市北京市通州区$通州区大杜社西田阳村132号",
            "city": "北京市",
            "longitude": "116.611007",
            "latitude": "39.740414"
        },
        {
            "adminId": 3786,
            "phone": "17063973039",
            "name": "好好学习彩站",
            "address": "北京市北京市海淀区$五道口购物中心",
            "city": "北京市",
            "longitude": "116.339274",
            "latitude": "39.992053"
        },
        {
            "adminId": 3787,
            "phone": "17063973051",
            "name": "天天向上竞彩",
            "address": "北京市北京市大兴区$宏达北路13号",
            "city": "北京市",
            "longitude": "116.505990",
            "latitude": "39.802879"
        },
        {
            "adminId": 3796,
            "phone": "17000639175",
            "name": "中发白彩站",
            "address": "北京市北京市朝阳区$大望路66号",
            "city": "北京市",
            "longitude": "116.480570",
            "latitude": "39.910341"
        },
        {
            "adminId": 3905,
            "phone": "13552087703",
            "name": "翠城竞彩店",
            "address": "北京市北京市朝阳区$朝阳区垡头翠城134号楼底商",
            "city": "北京市",
            "longitude": "116.509677",
            "latitude": "39.855445"
        },
        {
            "adminId": 3914,
            "phone": "13683528550",
            "name": "恭喜发财体彩",
            "address": "北京市北京市通州区$宋庄镇",
            "city": "北京市",
            "longitude": "116.727373",
            "latitude": "39.940984"
        },
        {
            "adminId": 3944,
            "phone": "15010910069",
            "name": "北京星级彩店",
            "address": "北京市北京市通州区$北京通州区大杜社西田阳村132号",
            "city": "北京市",
            "longitude": "116.611007",
            "latitude": "39.740414"
        },
        {
            "adminId": 4020,
            "phone": "18643111890",
            "name": "测试888",
            "address": "北京市北京市东城区$宿舍里几级了",
            "city": "北京市",
            "longitude": "116.416357",
            "latitude": "39.928353"
        },
        {
            "adminId": 4214,
            "phone": "18601258200",
            "name": "奖巨多彩店",
            "address": "北京市北京市丰台区$怡海花园6号楼底商",
            "city": "北京市",
            "longitude": "116.299083",
            "latitude": "39.833167"
        },
        {
            "adminId": 4432,
            "phone": "13030026706",
            "name": "铛铛",
            "address": "北京市北京市海淀区$优胜大厦d座1201",
            "city": "北京市",
            "longitude": "116.339133",
            "latitude": "39.991695"
        },
        {
            "adminId": 4446,
            "phone": "18901234567",
            "name": "测试注册流程",
            "address": "北京市北京市西城区$我的小",
            "city": "北京市",
            "longitude": "116.375198",
            "latitude": "39.909354"
        },
        {
            "adminId": 5645,
            "phone": "13811111114",
            "name": "陈啊3",
            "address": "北京市北京市东城区$好了了了了了",
            "city": "北京市",
            "longitude": "116.416357",
            "latitude": "39.928353"
        },
        {
            "adminId": 5700,
            "phone": "15211111110",
            "name": "陈师傅",
            "address": "北京市北京市东城区$史各庄",
            "city": "北京市",
            "longitude": "116.292251",
            "latitude": "40.100535"
        },
        {
            "adminId": 5778,
            "phone": "17600238123",
            "name": "李伟测试店1",
            "address": "北京市北京市东城区$1345567",
            "city": "北京市",
            "longitude": "116.416357",
            "latitude": "39.928353"
        },
        {
            "adminId": 5785,
            "phone": "15566669999",
            "name": "泡泡糖",
            "address": "北京市北京市东城区$好多家的那份耐心吗",
            "city": "北京市",
            "longitude": "116.416357",
            "latitude": "39.928353"
        }
    ]
}